{"type":"FeatureCollection", "features": [
{"type":"Feature","geometry":{"type":"Point","coordinates":[-96.608174,17.435752]},"properties":{"clave":20001,"municipio":"Abejones","region":"Sierra Norte","distrito":"Benemérito Distrito de Ixtlán de Juárez","bovinos":"bovinos","lat_dec":17.435752,"lon_dec":-96.608174}},
{"type":"Feature","geometry":{"type":"Point","coordinates":[-96.60761,18.538563]},"properties":{"clave":20002,"municipio":"Acatlán de Pérez Figueroa","region":"Papaloapam","distrito":"Tuxtepec","bovinos":"bovinos","lat_dec":18.538563,"lon_dec":-96.60761}},
{"type":"Feature","geometry":{"type":"Point","coordinates":[-95.057045,16.50384]},"properties":{"clave":20005,"municipio":"Asunción Ixtaltepec","region":"Istmo","distrito":"Juchitán","bovinos":"bovinos","lat_dec":16.50384,"lon_dec":-95.057045}},
{"type":"Feature","geometry":{"type":"Point","coordinates":[-95.726305,16.300263]},"properties":{"clave":20008,"municipio":"Asunción Tlacolulita","region":"Sierra Sur","distrito":"Yautepec","bovinos":"bovinos","lat_dec":16.300263,"lon_dec":-95.726305}},
{"type":"Feature","geometry":{"type":"Point","coordinates":[-96.133271,17.676709]},"properties":{"clave":20009,"municipio":"Ayotzintepec","region":"Papaloapam","distrito":"Tuxtepec","bovinos":"bovinos","lat_dec":17.676709,"lon_dec":-96.133271}},
{"type":"Feature","geometry":{"type":"Point","coordinates":[-95.11219,16.803935]},"properties":{"clave":20010,"municipio":"El Barrio de la Soledad","region":"Istmo","distrito":"Juchitán","bovinos":"bovinos","lat_dec":16.803935,"lon_dec":-95.11219}},
{"type":"Feature","geometry":{"type":"Point","coordinates":[-95.098713,16.567698]},"properties":{"clave":20014,"municipio":"Ciudad Ixtepec","region":"Istmo","distrito":"Juchitán","bovinos":"bovinos","lat_dec":16.567698,"lon_dec":-95.098713}},
{"type":"Feature","geometry":{"type":"Point","coordinates":[-97.400233,17.878533]},"properties":{"clave":20018,"municipio":"Concepción Buenavista","region":"Mixteca","distrito":"Coixtlahuaca","bovinos":"bovinos","lat_dec":17.878533,"lon_dec":-97.400233}},
{"type":"Feature","geometry":{"type":"Point","coordinates":[-96.88136,17.841365]},"properties":{"clave":20019,"municipio":"Concepción Pápalo","region":"Cañada","distrito":"Cuicatlán","bovinos":"bovinos","lat_dec":17.841365,"lon_dec":-96.88136}},
{"type":"Feature","geometry":{"type":"Point","coordinates":[-97.941458,17.037822]},"properties":{"clave":20020,"municipio":"Constancia del Rosario","region":"Sierra Sur","distrito":"Putla","bovinos":"bovinos","lat_dec":17.037822,"lon_dec":-97.941458}},
{"type":"Feature","geometry":{"type":"Point","coordinates":[-96.682386,18.601787]},"properties":{"clave":20021,"municipio":"Cosolapa","region":"Papaloapam","distrito":"Tuxtepec","bovinos":"bovinos","lat_dec":18.601787,"lon_dec":-96.682386}},
{"type":"Feature","geometry":{"type":"Point","coordinates":[-96.831376,17.965083]},"properties":{"clave":20024,"municipio":"Cuyamecalco Villa de Zaragoza","region":"Cañada","distrito":"Cuicatlán","bovinos":"bovinos","lat_dec":17.965083,"lon_dec":-96.831376}},
{"type":"Feature","geometry":{"type":"Point","coordinates":[-96.731901,16.564276]},"properties":{"clave":20028,"municipio":"Heroica Ciudad de Ejutla de Crespo","region":"Valles Centrales","distrito":"Ejutla","bovinos":"bovinos","lat_dec":16.564276,"lon_dec":-96.731901}},
{"type":"Feature","geometry":{"type":"Point","coordinates":[-96.876091,18.176881]},"properties":{"clave":20029,"municipio":"Eloxochitlán de Flores Magón","region":"Cañada","distrito":"Teotitlán","bovinos":"bovinos","lat_dec":18.176881,"lon_dec":-96.876091}},
{"type":"Feature","geometry":{"type":"Point","coordinates":[-95.042836,16.48571]},"properties":{"clave":20030,"municipio":"El Espinal","region":"Istmo","distrito":"Juchitán","bovinos":"bovinos","lat_dec":16.48571,"lon_dec":-95.042836}},
{"type":"Feature","geometry":{"type":"Point","coordinates":[-96.065106,17.054436]},"properties":{"clave":20031,"municipio":"Tamazulápam del Espíritu Santo","region":"Sierra Norte","distrito":"Mixe","bovinos":"bovinos","lat_dec":17.054436,"lon_dec":-96.065106}},
{"type":"Feature","geometry":{"type":"Point","coordinates":[-95.368056,16.792614]},"properties":{"clave":20036,"municipio":"Guevea de Humboldt","region":"Istmo","distrito":"Tehuantepec","bovinos":"bovinos","lat_dec":16.792614,"lon_dec":-95.368056}},
{"type":"Feature","geometry":{"type":"Point","coordinates":[-97.966546,16.915356]},"properties":{"clave":20037,"municipio":"Mesones Hidalgo","region":"Sierra Sur","distrito":"Putla","bovinos":"bovinos","lat_dec":16.915356,"lon_dec":-97.966546}},
{"type":"Feature","geometry":{"type":"Point","coordinates":[-96.487802,17.331529]},"properties":{"clave":20042,"municipio":"Ixtlán de Juárez","region":"Sierra Norte","distrito":"Benemérito Distrito de Ixtlán de Juárez","bovinos":"bovinos","lat_dec":17.331529,"lon_dec":-96.487802}},
{"type":"Feature","geometry":{"type":"Point","coordinates":[-95.021633,16.433308]},"properties":{"clave":20043,"municipio":"Juchitán de Zaragoza","region":"Istmo","distrito":"Juchitán","bovinos":"bovinos","lat_dec":16.433308,"lon_dec":-95.021633}},
{"type":"Feature","geometry":{"type":"Point","coordinates":[-95.879976,18.109871]},"properties":{"clave":20044,"municipio":"Loma Bonita","region":"Papaloapam","distrito":"Tuxtepec","bovinos":"bovinos","lat_dec":18.109871,"lon_dec":-95.879976}},
{"type":"Feature","geometry":{"type":"Point","coordinates":[-97.221277,17.323621]},"properties":{"clave":20046,"municipio":"Magdalena Jaltepec","region":"Mixteca","distrito":"Nochixtlán","bovinos":"bovinos","lat_dec":17.323621,"lon_dec":-97.221277}},
{"type":"Feature","geometry":{"type":"Point","coordinates":[-95.602909,16.398917]},"properties":{"clave":20052,"municipio":"Magdalena Tequisistlán","region":"Istmo","distrito":"Tehuantepec","bovinos":"bovinos","lat_dec":16.398917,"lon_dec":-95.602909}},
{"type":"Feature","geometry":{"type":"Point","coordinates":[-95.203306,16.503966]},"properties":{"clave":20053,"municipio":"Magdalena Tlacotepec","region":"Istmo","distrito":"Tehuantepec","bovinos":"bovinos","lat_dec":16.503966,"lon_dec":-95.203306}},
{"type":"Feature","geometry":{"type":"Point","coordinates":[-98.250913,16.537986]},"properties":{"clave":20056,"municipio":"Mártires de Tacubaya","region":"Costa","distrito":"Jamiltepec","bovinos":"bovinos","lat_dec":16.537986,"lon_dec":-98.250913}},
{"type":"Feature","geometry":{"type":"Point","coordinates":[-95.042149,16.877889]},"properties":{"clave":20057,"municipio":"Matías Romero","region":"Istmo","distrito":"Juchitán","bovinos":"bovinos","lat_dec":16.877889,"lon_dec":-95.042149}},
{"type":"Feature","geometry":{"type":"Point","coordinates":[-96.913721,18.032564]},"properties":{"clave":20058,"municipio":"Mazatlán Villa de Flores","region":"Cañada","distrito":"Teotitlán","bovinos":"bovinos","lat_dec":18.032564,"lon_dec":-96.913721}},
{"type":"Feature","geometry":{"type":"Point","coordinates":[-96.596524,16.328478]},"properties":{"clave":20059,"municipio":"Miahuatlán de Porfirio Díaz","region":"Sierra Sur","distrito":"Miahuatlán","bovinos":"bovinos","lat_dec":16.328478,"lon_dec":-96.596524}},
{"type":"Feature","geometry":{"type":"Point","coordinates":[-95.98045,16.608181]},"properties":{"clave":20064,"municipio":"Nejapa de Madero","region":"Sierra Sur","distrito":"Yautepec","bovinos":"bovinos","lat_dec":16.608181,"lon_dec":-95.98045}},
{"type":"Feature","geometry":{"type":"Point","coordinates":[-94.613004,16.562093]},"properties":{"clave":20066,"municipio":"Santiago Niltepec","region":"Istmo","distrito":"Juchitán","bovinos":"bovinos","lat_dec":16.562093,"lon_dec":-94.613004}},
{"type":"Feature","geometry":{"type":"Point","coordinates":[-96.675064,16.791641]},"properties":{"clave":20068,"municipio":"Ocotlán de Morelos","region":"Valles Centrales","distrito":"Ocotlán","bovinos":"bovinos","lat_dec":16.791641,"lon_dec":-96.675064}},
{"type":"Feature","geometry":{"type":"Point","coordinates":[-97.977435,16.428442]},"properties":{"clave":20070,"municipio":"Pinotepa de Don Luis","region":"Costa","distrito":"Jamiltepec","bovinos":"bovinos","lat_dec":16.428442,"lon_dec":-97.977435}},
{"type":"Feature","geometry":{"type":"Point","coordinates":[-96.685529,16.685128]},"properties":{"clave":20072,"municipio":"San José del Progreso","region":"Valles Centrales","distrito":"Ocotlán","bovinos":"bovinos","lat_dec":16.685128,"lon_dec":-96.685529}},
{"type":"Feature","geometry":{"type":"Point","coordinates":[-97.928153,17.026205]},"properties":{"clave":20073,"municipio":"Putla Villa de Guerrero","region":"Sierra Sur","distrito":"Putla","bovinos":"bovinos","lat_dec":17.026205,"lon_dec":-97.928153}},
{"type":"Feature","geometry":{"type":"Point","coordinates":[-94.458434,16.399319]},"properties":{"clave":20075,"municipio":"Reforma de Pineda","region":"Istmo","distrito":"Juchitán","bovinos":"bovinos","lat_dec":16.399319,"lon_dec":-94.458434}},
{"type":"Feature","geometry":{"type":"Point","coordinates":[-97.844498,16.623315]},"properties":{"clave":20076,"municipio":"La Reforma","region":"Sierra Sur","distrito":"Putla","bovinos":"bovinos","lat_dec":16.623315,"lon_dec":-97.844498}},
{"type":"Feature","geometry":{"type":"Point","coordinates":[-96.810093,17.205556]},"properties":{"clave":20077,"municipio":"Reyes Etla","region":"Valles Centrales","distrito":"Etla","bovinos":"bovinos","lat_dec":17.205556,"lon_dec":-96.810093}},
{"type":"Feature","geometry":{"type":"Point","coordinates":[-95.192159,16.175885]},"properties":{"clave":20079,"municipio":"Salina Cruz","region":"Istmo","distrito":"Tehuantepec","bovinos":"bovinos","lat_dec":16.175885,"lon_dec":-95.192159}},
{"type":"Feature","geometry":{"type":"Point","coordinates":[-97.807518,16.402382]},"properties":{"clave":20082,"municipio":"San Agustín Chayuco","region":"Costa","distrito":"Jamiltepec","bovinos":"bovinos","lat_dec":16.402382,"lon_dec":-97.807518}},
{"type":"Feature","geometry":{"type":"Point","coordinates":[-96.616764,16.016609]},"properties":{"clave":20085,"municipio":"San Agustín Loxicha","region":"Costa","distrito":"Pochutla","bovinos":"bovinos","lat_dec":16.016609,"lon_dec":-96.616764}},
{"type":"Feature","geometry":{"type":"Point","coordinates":[-97.68099,16.888416]},"properties":{"clave":20088,"municipio":"San Andrés Cabecera Nueva","region":"Sierra Sur","distrito":"Putla","bovinos":"bovinos","lat_dec":16.888416,"lon_dec":-97.68099}},
{"type":"Feature","geometry":{"type":"Point","coordinates":[-97.916349,16.329046]},"properties":{"clave":20090,"municipio":"San Andrés Huaxpaltepec","region":"Costa","distrito":"Jamiltepec","bovinos":"bovinos","lat_dec":16.329046,"lon_dec":-97.916349}},
{"type":"Feature","geometry":{"type":"Point","coordinates":[-97.522746,17.574427]},"properties":{"clave":20093,"municipio":"San Andrés Lagunas","region":"Mixteca","distrito":"Teposcolula","bovinos":"bovinos","lat_dec":17.574427,"lon_dec":-97.522746}},
{"type":"Feature","geometry":{"type":"Point","coordinates":[-96.236895,17.271028]},"properties":{"clave":20097,"municipio":"San Andrés Solaga","region":"Sierra Norte","distrito":"Villa Alta","bovinos":"bovinos","lat_dec":17.271028,"lon_dec":-96.236895}},
{"type":"Feature","geometry":{"type":"Point","coordinates":[-96.656588,17.954131]},"properties":{"clave":20098,"municipio":"San Andrés Teotilálpam","region":"Cañada","distrito":"Cuicatlán","bovinos":"bovinos","lat_dec":17.954131,"lon_dec":-96.656588}},
{"type":"Feature","geometry":{"type":"Point","coordinates":[-96.86349,17.186388]},"properties":{"clave":20102,"municipio":"San Andrés Zautla","region":"Valles Centrales","distrito":"Etla","bovinos":"bovinos","lat_dec":17.186388,"lon_dec":-96.86349}},
{"type":"Feature","geometry":{"type":"Point","coordinates":[-98.066226,16.542361]},"properties":{"clave":20111,"municipio":"San Antonio Tepetlapa","region":"Costa","distrito":"Jamiltepec","bovinos":"bovinos","lat_dec":16.542361,"lon_dec":-98.066226}},
{"type":"Feature","geometry":{"type":"Point","coordinates":[-96.489681,16.762097]},"properties":{"clave":20112,"municipio":"San Baltazar Chichicápam","region":"Valles Centrales","distrito":"Ocotlán","bovinos":"bovinos","lat_dec":16.762097,"lon_dec":-96.489681}},
{"type":"Feature","geometry":{"type":"Point","coordinates":[-97.308935,17.590641]},"properties":{"clave":20121,"municipio":"San Bartolo Soyaltepec","region":"Mixteca","distrito":"Teposcolula","bovinos":"bovinos","lat_dec":17.590641,"lon_dec":-97.308935}},
{"type":"Feature","geometry":{"type":"Point","coordinates":[-95.227546,16.326322]},"properties":{"clave":20124,"municipio":"San Blas Atempa","region":"Istmo","distrito":"Tehuantepec","bovinos":"bovinos","lat_dec":16.326322,"lon_dec":-95.227546}},
{"type":"Feature","geometry":{"type":"Point","coordinates":[-96.106704,16.500607]},"properties":{"clave":20125,"municipio":"San Carlos Yautepec","region":"Sierra Sur","distrito":"Yautepec","bovinos":"bovinos","lat_dec":16.500607,"lon_dec":-96.106704}},
{"type":"Feature","geometry":{"type":"Point","coordinates":[-94.757003,16.320539]},"properties":{"clave":20130,"municipio":"San Dionisio del Mar","region":"Istmo","distrito":"Juchitán","bovinos":"bovinos","lat_dec":16.320539,"lon_dec":-94.757003}},
{"type":"Feature","geometry":{"type":"Point","coordinates":[-96.396037,16.797754]},"properties":{"clave":20131,"municipio":"San Dionisio Ocotepec","region":"Valles Centrales","distrito":"Tlacolula","bovinos":"bovinos","lat_dec":16.797754,"lon_dec":-96.396037}},
{"type":"Feature","geometry":{"type":"Point","coordinates":[-96.536115,18.071283]},"properties":{"clave":20134,"municipio":"San Felipe Jalapa de Díaz","region":"Papaloapam","distrito":"Tuxtepec","bovinos":"bovinos","lat_dec":18.071283,"lon_dec":-96.536115}},
{"type":"Feature","geometry":{"type":"Point","coordinates":[-96.853258,17.111401]},"properties":{"clave":20135,"municipio":"San Felipe Tejalápam","region":"Valles Centrales","distrito":"Etla","bovinos":"bovinos","lat_dec":17.111401,"lon_dec":-96.853258}},
{"type":"Feature","geometry":{"type":"Point","coordinates":[-96.528363,17.879395]},"properties":{"clave":20136,"municipio":"San Felipe Usila","region":"Papaloapam","distrito":"Tuxtepec","bovinos":"bovinos","lat_dec":17.879395,"lon_dec":-96.528363}},
{"type":"Feature","geometry":{"type":"Point","coordinates":[-96.754408,17.940951]},"properties":{"clave":20139,"municipio":"San Francisco Chapulapa","region":"Cañada","distrito":"Cuicatlán","bovinos":"bovinos","lat_dec":17.940951,"lon_dec":-96.754408}},
{"type":"Feature","geometry":{"type":"Point","coordinates":[-94.632276,16.233446]},"properties":{"clave":20141,"municipio":"San Francisco del Mar","region":"Istmo","distrito":"Juchitán","bovinos":"bovinos","lat_dec":16.233446,"lon_dec":-94.632276}},
{"type":"Feature","geometry":{"type":"Point","coordinates":[-96.947821,18.197594]},"properties":{"clave":20142,"municipio":"San Francisco Huehuetlán","region":"Cañada","distrito":"Teotitlán","bovinos":"bovinos","lat_dec":18.197594,"lon_dec":-96.947821}},
{"type":"Feature","geometry":{"type":"Point","coordinates":[-94.483828,16.352357]},"properties":{"clave":20143,"municipio":"San Francisco Ixhuatán","region":"Istmo","distrito":"Juchitán","bovinos":"bovinos","lat_dec":16.352357,"lon_dec":-94.483828}},
{"type":"Feature","geometry":{"type":"Point","coordinates":[-96.9744,16.514966]},"properties":{"clave":20149,"municipio":"San Francisco Sola","region":"Sierra Sur","distrito":"Sola de Vega","bovinos":"bovinos","lat_dec":16.514966,"lon_dec":-96.9744}},
{"type":"Feature","geometry":{"type":"Point","coordinates":[-96.904413,17.296596]},"properties":{"clave":20150,"municipio":"San Francisco Telixtlahuaca","region":"Valles Centrales","distrito":"Etla","bovinos":"bovinos","lat_dec":17.296596,"lon_dec":-96.904413}},
{"type":"Feature","geometry":{"type":"Point","coordinates":[-97.079499,16.094423]},"properties":{"clave":20153,"municipio":"San Gabriel Mixtepec","region":"Costa","distrito":"Juquila","bovinos":"bovinos","lat_dec":16.094423,"lon_dec":-97.079499}},
{"type":"Feature","geometry":{"type":"Point","coordinates":[-96.983668,16.519812]},"properties":{"clave":20155,"municipio":"San Ildefonso Sola","region":"Sierra Sur","distrito":"Sola de Vega","bovinos":"bovinos","lat_dec":16.519812,"lon_dec":-96.983668}},
{"type":"Feature","geometry":{"type":"Point","coordinates":[-96.153014,17.339011]},"properties":{"clave":20156,"municipio":"San Ildefonso Villa Alta","region":"Sierra Norte","distrito":"Villa Alta","bovinos":"bovinos","lat_dec":17.339011,"lon_dec":-96.153014}},
{"type":"Feature","geometry":{"type":"Point","coordinates":[-96.869294,16.232721]},"properties":{"clave":20159,"municipio":"San Jerónimo Coatlán","region":"Sierra Sur","distrito":"Miahuatlán","bovinos":"bovinos","lat_dec":16.232721,"lon_dec":-96.869294}},
{"type":"Feature","geometry":{"type":"Point","coordinates":[-96.170537,17.945353]},"properties":{"clave":20166,"municipio":"San José Chiltepec","region":"Papaloapam","distrito":"Tuxtepec","bovinos":"bovinos","lat_dec":17.945353,"lon_dec":-96.170537}},
{"type":"Feature","geometry":{"type":"Point","coordinates":[-98.251286,16.365203]},"properties":{"clave":20168,"municipio":"San José Estancia Grande","region":"Costa","distrito":"Jamiltepec","bovinos":"bovinos","lat_dec":16.365203,"lon_dec":-98.251286}},
{"type":"Feature","geometry":{"type":"Point","coordinates":[-96.646128,18.239824]},"properties":{"clave":20169,"municipio":"San José Independencia","region":"Papaloapam","distrito":"Tuxtepec","bovinos":"bovinos","lat_dec":18.239824,"lon_dec":-96.646128}},
{"type":"Feature","geometry":{"type":"Point","coordinates":[-96.959567,17.801548]},"properties":{"clave":20177,"municipio":"San Juan Bautista Cuicatlán","region":"Cañada","distrito":"Cuicatlán","bovinos":"bovinos","lat_dec":17.801548,"lon_dec":-96.959567}},
{"type":"Feature","geometry":{"type":"Point","coordinates":[-98.346803,16.511515]},"properties":{"clave":20180,"municipio":"San Juan Bautista Lo de Soto","region":"Costa","distrito":"Jamiltepec","bovinos":"bovinos","lat_dec":16.511515,"lon_dec":-98.346803}},
{"type":"Feature","geometry":{"type":"Point","coordinates":[-97.65982,17.972718]},"properties":{"clave":20181,"municipio":"San Juan Bautista Suchitepec","region":"Mixteca","distrito":"Huajuapan","bovinos":"bovinos","lat_dec":17.972718,"lon_dec":-97.65982}},
{"type":"Feature","geometry":{"type":"Point","coordinates":[-96.587088,17.859441]},"properties":{"clave":20182,"municipio":"San Juan Bautista Tlacoatzintepec","region":"Cañada","distrito":"Cuicatlán","bovinos":"bovinos","lat_dec":17.859441,"lon_dec":-96.587088}},
{"type":"Feature","geometry":{"type":"Point","coordinates":[-96.118482,18.081165]},"properties":{"clave":20184,"municipio":"San Juan Bautista Tuxtepec","region":"Papaloapam","distrito":"Tuxtepec","bovinos":"bovinos","lat_dec":18.081165,"lon_dec":-96.118482}},
{"type":"Feature","geometry":{"type":"Point","coordinates":[-98.156092,16.613734]},"properties":{"clave":20185,"municipio":"San Juan Cacahuatepec","region":"Costa","distrito":"Jamiltepec","bovinos":"bovinos","lat_dec":16.613734,"lon_dec":-98.156092}},
{"type":"Feature","geometry":{"type":"Point","coordinates":[-96.763325,18.0497]},"properties":{"clave":20187,"municipio":"San Juan Coatzóspam","region":"Cañada","distrito":"Teotitlán","bovinos":"bovinos","lat_dec":18.0497,"lon_dec":-96.763325}},
{"type":"Feature","geometry":{"type":"Point","coordinates":[-97.953989,16.459666]},"properties":{"clave":20188,"municipio":"San Juan Colorado","region":"Costa","distrito":"Jamiltepec","bovinos":"bovinos","lat_dec":16.459666,"lon_dec":-97.953989}},
{"type":"Feature","geometry":{"type":"Point","coordinates":[-95.976846,17.33818]},"properties":{"clave":20189,"municipio":"San Juan Comaltepec","region":"Papaloapam","distrito":"Choápam","bovinos":"bovinos","lat_dec":17.33818,"lon_dec":-95.976846}},
{"type":"Feature","geometry":{"type":"Point","coordinates":[-95.78231,17.164002]},"properties":{"clave":20190,"municipio":"San Juan Cotzocón","region":"Sierra Norte","distrito":"Mixe","bovinos":"bovinos","lat_dec":17.164002,"lon_dec":-95.78231}},
{"type":"Feature","geometry":{"type":"Point","coordinates":[-95.095094,16.962829]},"properties":{"clave":20198,"municipio":"San Juan Guichicovi","region":"Istmo","distrito":"Juchitán","bovinos":"bovinos","lat_dec":16.962829,"lon_dec":-95.095094}},
{"type":"Feature","geometry":{"type":"Point","coordinates":[-98.288846,17.739842]},"properties":{"clave":20199,"municipio":"San Juan Ihualtepec","region":"Mixteca","distrito":"Silacayoápam","bovinos":"bovinos","lat_dec":17.739842,"lon_dec":-98.288846}},
{"type":"Feature","geometry":{"type":"Point","coordinates":[-95.918818,16.935633]},"properties":{"clave":20200,"municipio":"San Juan Juquila Mixes","region":"Sierra Sur","distrito":"Yautepec","bovinos":"bovinos","lat_dec":16.935633,"lon_dec":-95.918818}},
{"type":"Feature","geometry":{"type":"Point","coordinates":[-97.125108,16.158538]},"properties":{"clave":20202,"municipio":"San Juan Lachao","region":"Costa","distrito":"Juquila","bovinos":"bovinos","lat_dec":16.158538,"lon_dec":-97.125108}},
{"type":"Feature","geometry":{"type":"Point","coordinates":[-95.925591,16.508444]},"properties":{"clave":20204,"municipio":"San Juan Lajarcia","region":"Sierra Sur","distrito":"Yautepec","bovinos":"bovinos","lat_dec":16.508444,"lon_dec":-95.925591}},
{"type":"Feature","geometry":{"type":"Point","coordinates":[-95.879883,17.470891]},"properties":{"clave":20205,"municipio":"San Juan Lalana","region":"Papaloapam","distrito":"Choápam","bovinos":"bovinos","lat_dec":17.470891,"lon_dec":-95.879883}},
{"type":"Feature","geometry":{"type":"Point","coordinates":[-95.446467,17.031124]},"properties":{"clave":20207,"municipio":"San Juan Mazatlán","region":"Sierra Norte","distrito":"Mixe","bovinos":"bovinos","lat_dec":17.031124,"lon_dec":-95.446467}},
{"type":"Feature","geometry":{"type":"Point","coordinates":[-96.036834,17.469302]},"properties":{"clave":20212,"municipio":"San Juan Petlapa","region":"Papaloapam","distrito":"Choápam","bovinos":"bovinos","lat_dec":17.469302,"lon_dec":-96.036834}},
{"type":"Feature","geometry":{"type":"Point","coordinates":[-97.316846,16.301878]},"properties":{"clave":20213,"municipio":"San Juan Quiahije","region":"Costa","distrito":"Juquila","bovinos":"bovinos","lat_dec":16.301878,"lon_dec":-97.316846}},
{"type":"Feature","geometry":{"type":"Point","coordinates":[-96.588162,17.600763]},"properties":{"clave":20214,"municipio":"San Juan Quiotepec","region":"Sierra Norte","distrito":"Benemérito Distrito de Ixtlán de Juárez","bovinos":"bovinos","lat_dec":17.600763,"lon_dec":-96.588162}},
{"type":"Feature","geometry":{"type":"Point","coordinates":[-96.841103,17.722881]},"properties":{"clave":20220,"municipio":"San Juan Tepeuxila","region":"Cañada","distrito":"Cuicatlán","bovinos":"bovinos","lat_dec":17.722881,"lon_dec":-96.841103}},
{"type":"Feature","geometry":{"type":"Point","coordinates":[-97.424684,17.550645]},"properties":{"clave":20221,"municipio":"San Juan Teposcolula","region":"Mixteca","distrito":"Teposcolula","bovinos":"bovinos","lat_dec":17.550645,"lon_dec":-97.424684}},
{"type":"Feature","geometry":{"type":"Point","coordinates":[-97.874836,16.394262]},"properties":{"clave":20225,"municipio":"San Lorenzo","region":"Costa","distrito":"Jamiltepec","bovinos":"bovinos","lat_dec":16.394262,"lon_dec":-97.874836}},
{"type":"Feature","geometry":{"type":"Point","coordinates":[-96.259648,16.907226]},"properties":{"clave":20226,"municipio":"San Lorenzo Albarradas","region":"Valles Centrales","distrito":"Tlacolula","bovinos":"bovinos","lat_dec":16.907226,"lon_dec":-96.259648}},
{"type":"Feature","geometry":{"type":"Point","coordinates":[-96.801996,17.129359]},"properties":{"clave":20227,"municipio":"San Lorenzo Cacaotepec","region":"Valles Centrales","distrito":"Etla","bovinos":"bovinos","lat_dec":17.129359,"lon_dec":-96.801996}},
{"type":"Feature","geometry":{"type":"Point","coordinates":[-96.397763,18.057503]},"properties":{"clave":20232,"municipio":"San Lucas Ojitlán","region":"Papaloapam","distrito":"Tuxtepec","bovinos":"bovinos","lat_dec":18.057503,"lon_dec":-96.397763}},
{"type":"Feature","geometry":{"type":"Point","coordinates":[-96.497115,16.389468]},"properties":{"clave":20235,"municipio":"San Luis Amatlán","region":"Sierra Sur","distrito":"Miahuatlán","bovinos":"bovinos","lat_dec":16.389468,"lon_dec":-96.497115}},
{"type":"Feature","geometry":{"type":"Point","coordinates":[-97.27174,17.414836]},"properties":{"clave":20250,"municipio":"San Mateo Etlatongo","region":"Mixteca","distrito":"Nochixtlán","bovinos":"bovinos","lat_dec":17.414836,"lon_dec":-97.27174}},
{"type":"Feature","geometry":{"type":"Point","coordinates":[-98.025568,17.891389]},"properties":{"clave":20261,"municipio":"San Miguel Amatitlán","region":"Mixteca","distrito":"Huajuapan","bovinos":"bovinos","lat_dec":17.891389,"lon_dec":-98.025568}},
{"type":"Feature","geometry":{"type":"Point","coordinates":[-96.47175,17.275525]},"properties":{"clave":20262,"municipio":"San Miguel Amatlán","region":"Sierra Norte","distrito":"Benemérito Distrito de Ixtlán de Juárez","bovinos":"bovinos","lat_dec":17.275525,"lon_dec":-96.47175}},
{"type":"Feature","geometry":{"type":"Point","coordinates":[-94.748212,16.714515]},"properties":{"clave":20265,"municipio":"San Miguel Chimalapa","region":"Istmo","distrito":"Juchitán","bovinos":"bovinos","lat_dec":16.714515,"lon_dec":-94.748212}},
{"type":"Feature","geometry":{"type":"Point","coordinates":[-96.174852,15.921633]},"properties":{"clave":20266,"municipio":"San Miguel del Puerto","region":"Costa","distrito":"Pochutla","bovinos":"bovinos","lat_dec":15.921633,"lon_dec":-96.174852}},
{"type":"Feature","geometry":{"type":"Point","coordinates":[-96.739378,16.580445]},"properties":{"clave":20268,"municipio":"San Miguel Ejutla","region":"Valles Centrales","distrito":"Ejutla","bovinos":"bovinos","lat_dec":16.580445,"lon_dec":-96.739378}},
{"type":"Feature","geometry":{"type":"Point","coordinates":[-96.403581,18.240372]},"properties":{"clave":20278,"municipio":"San Miguel Soyaltepec","region":"Papaloapam","distrito":"Tuxtepec","bovinos":"bovinos","lat_dec":18.240372,"lon_dec":-96.403581}},
{"type":"Feature","geometry":{"type":"Point","coordinates":[-95.592522,16.267321]},"properties":{"clave":20282,"municipio":"San Miguel Tenango","region":"Istmo","distrito":"Tehuantepec","bovinos":"bovinos","lat_dec":16.267321,"lon_dec":-95.592522}},
{"type":"Feature","geometry":{"type":"Point","coordinates":[-98.063217,16.416729]},"properties":{"clave":20285,"municipio":"San Miguel Tlacamama","region":"Costa","distrito":"Jamiltepec","bovinos":"bovinos","lat_dec":16.416729,"lon_dec":-98.063217}},
{"type":"Feature","geometry":{"type":"Point","coordinates":[-97.441511,17.75124]},"properties":{"clave":20287,"municipio":"San Miguel Tulancingo","region":"Mixteca","distrito":"Coixtlahuaca","bovinos":"bovinos","lat_dec":17.75124,"lon_dec":-97.441511}},
{"type":"Feature","geometry":{"type":"Point","coordinates":[-96.553561,17.534291]},"properties":{"clave":20296,"municipio":"San Pablo Macuiltianguis","region":"Sierra Norte","distrito":"Benemérito Distrito de Ixtlán de Juárez","bovinos":"bovinos","lat_dec":17.534291,"lon_dec":-96.553561}},
{"type":"Feature","geometry":{"type":"Point","coordinates":[-98.089927,16.653904]},"properties":{"clave":20300,"municipio":"San Pedro Amuzgos","region":"Sierra Sur","distrito":"Putla","bovinos":"bovinos","lat_dec":16.653904,"lon_dec":-98.089927}},
{"type":"Feature","geometry":{"type":"Point","coordinates":[-97.986977,16.489084]},"properties":{"clave":20302,"municipio":"San Pedro Atoyac","region":"Costa","distrito":"Jamiltepec","bovinos":"bovinos","lat_dec":16.489084,"lon_dec":-97.986977}},
{"type":"Feature","geometry":{"type":"Point","coordinates":[-95.159878,16.490304]},"properties":{"clave":20305,"municipio":"San Pedro Comitancillo","region":"Istmo","distrito":"Tehuantepec","bovinos":"bovinos","lat_dec":16.490304,"lon_dec":-95.159878}},
{"type":"Feature","geometry":{"type":"Point","coordinates":[-95.668856,16.029032]},"properties":{"clave":20307,"municipio":"San Pedro Huamelula","region":"Istmo","distrito":"Tehuantepec","bovinos":"bovinos","lat_dec":16.029032,"lon_dec":-95.668856}},
{"type":"Feature","geometry":{"type":"Point","coordinates":[-95.152934,16.243657]},"properties":{"clave":20308,"municipio":"San Pedro Huilotepec","region":"Istmo","distrito":"Tehuantepec","bovinos":"bovinos","lat_dec":16.243657,"lon_dec":-95.152934}},
{"type":"Feature","geometry":{"type":"Point","coordinates":[-96.510622,18.14566]},"properties":{"clave":20309,"municipio":"San Pedro Ixcatlán","region":"Papaloapam","distrito":"Tuxtepec","bovinos":"bovinos","lat_dec":18.14566,"lon_dec":-96.510622}},
{"type":"Feature","geometry":{"type":"Point","coordinates":[-98.015199,16.452186]},"properties":{"clave":20312,"municipio":"San Pedro Jicayán","region":"Costa","distrito":"Jamiltepec","bovinos":"bovinos","lat_dec":16.452186,"lon_dec":-98.015199}},
{"type":"Feature","geometry":{"type":"Point","coordinates":[-97.083832,15.982644]},"properties":{"clave":20318,"municipio":"San Pedro Mixtepec Distrito 22","region":"Costa","distrito":"Juquila","bovinos":"bovinos","lat_dec":15.982644,"lon_dec":-97.083832}},
{"type":"Feature","geometry":{"type":"Point","coordinates":[-96.46523,15.746341]},"properties":{"clave":20324,"municipio":"San Pedro Pochutla","region":"Costa","distrito":"Pochutla","bovinos":"bovinos","lat_dec":15.746341,"lon_dec":-96.46523}},
{"type":"Feature","geometry":{"type":"Point","coordinates":[-96.6644,17.825141]},"properties":{"clave":20326,"municipio":"San Pedro Sochiápam","region":"Cañada","distrito":"Cuicatlán","bovinos":"bovinos","lat_dec":17.825141,"lon_dec":-96.6644}},
{"type":"Feature","geometry":{"type":"Point","coordinates":[-94.193848,16.367249]},"properties":{"clave":20327,"municipio":"San Pedro Tapanatepec","region":"Istmo","distrito":"Juchitán","bovinos":"bovinos","lat_dec":16.367249,"lon_dec":-94.193848}},
{"type":"Feature","geometry":{"type":"Point","coordinates":[-96.705671,17.977028]},"properties":{"clave":20330,"municipio":"San Pedro Teutila","region":"Cañada","distrito":"Cuicatlán","bovinos":"bovinos","lat_dec":17.977028,"lon_dec":-96.705671}},
{"type":"Feature","geometry":{"type":"Point","coordinates":[-96.301907,16.666444]},"properties":{"clave":20333,"municipio":"San Pedro Totolapa","region":"Valles Centrales","distrito":"Tlacolula","bovinos":"bovinos","lat_dec":16.666444,"lon_dec":-96.301907}},
{"type":"Feature","geometry":{"type":"Point","coordinates":[-97.608541,16.129895]},"properties":{"clave":20334,"municipio":"Villa de Tututepec de Melchor Ocampo","region":"Costa","distrito":"Juquila","bovinos":"bovinos","lat_dec":16.129895,"lon_dec":-97.608541}},
{"type":"Feature","geometry":{"type":"Point","coordinates":[-96.551576,17.588436]},"properties":{"clave":20336,"municipio":"San Pedro Yólox","region":"Sierra Norte","distrito":"Benemérito Distrito de Ixtlán de Juárez","bovinos":"bovinos","lat_dec":17.588436,"lon_dec":-96.551576}},
{"type":"Feature","geometry":{"type":"Point","coordinates":[-97.488189,17.51207]},"properties":{"clave":20339,"municipio":"San Pedro y San Pablo Teposcolula","region":"Mixteca","distrito":"Teposcolula","bovinos":"bovinos","lat_dec":17.51207,"lon_dec":-97.488189}},
{"type":"Feature","geometry":{"type":"Point","coordinates":[-98.144487,16.543667]},"properties":{"clave":20345,"municipio":"San Sebastián Ixcapa","region":"Costa","distrito":"Jamiltepec","bovinos":"bovinos","lat_dec":16.543667,"lon_dec":-98.144487}},
{"type":"Feature","geometry":{"type":"Point","coordinates":[-96.794698,17.983841]},"properties":{"clave":20355,"municipio":"Santa Ana Cuauhtémoc","region":"Cañada","distrito":"Cuicatlán","bovinos":"bovinos","lat_dec":17.983841,"lon_dec":-96.794698}},
{"type":"Feature","geometry":{"type":"Point","coordinates":[-95.911568,16.65465]},"properties":{"clave":20357,"municipio":"Santa Ana Tavela","region":"Sierra Sur","distrito":"Yautepec","bovinos":"bovinos","lat_dec":16.65465,"lon_dec":-95.911568}},
{"type":"Feature","geometry":{"type":"Point","coordinates":[-97.292473,16.237009]},"properties":{"clave":20364,"municipio":"Santa Catarina Juquila","region":"Costa","distrito":"Juquila","bovinos":"bovinos","lat_dec":16.237009,"lon_dec":-97.292473}},
{"type":"Feature","geometry":{"type":"Point","coordinates":[-97.836026,16.334434]},"properties":{"clave":20367,"municipio":"Santa Catarina Mechoacán","region":"Costa","distrito":"Jamiltepec","bovinos":"bovinos","lat_dec":16.334434,"lon_dec":-97.836026}},
{"type":"Feature","geometry":{"type":"Point","coordinates":[-97.534859,17.071236]},"properties":{"clave":20371,"municipio":"Santa Catarina Ticuá","region":"Mixteca","distrito":"Tlaxiaco","bovinos":"bovinos","lat_dec":17.071236,"lon_dec":-97.534859}},
{"type":"Feature","geometry":{"type":"Point","coordinates":[-97.660551,16.87493]},"properties":{"clave":20377,"municipio":"Santa Cruz Itundujia","region":"Sierra Sur","distrito":"Putla","bovinos":"bovinos","lat_dec":16.87493,"lon_dec":-97.660551}},
{"type":"Feature","geometry":{"type":"Point","coordinates":[-96.882407,16.792443]},"properties":{"clave":20378,"municipio":"Santa Cruz Mixtepec","region":"Valles Centrales","distrito":"Zimatlán","bovinos":"bovinos","lat_dec":16.792443,"lon_dec":-96.882407}},
{"type":"Feature","geometry":{"type":"Point","coordinates":[-97.495079,16.535131]},"properties":{"clave":20386,"municipio":"Santa Cruz Zenzontepec","region":"Sierra Sur","distrito":"Sola de Vega","bovinos":"bovinos","lat_dec":16.535131,"lon_dec":-97.495079}},
{"type":"Feature","geometry":{"type":"Point","coordinates":[-96.861687,16.925767]},"properties":{"clave":20388,"municipio":"Santa Inés del Monte","region":"Valles Centrales","distrito":"Zaachila","bovinos":"bovinos","lat_dec":16.925767,"lon_dec":-96.861687}},
{"type":"Feature","geometry":{"type":"Point","coordinates":[-95.854572,17.092096]},"properties":{"clave":20394,"municipio":"Santa María Alotepec","region":"Sierra Norte","distrito":"Mixe","bovinos":"bovinos","lat_dec":17.092096,"lon_dec":-95.854572}},
{"type":"Feature","geometry":{"type":"Point","coordinates":[-97.680492,17.26747]},"properties":{"clave":20397,"municipio":"Heroica Ciudad de Tlaxiaco","region":"Mixteca","distrito":"Tlaxiaco","bovinos":"bovinos","lat_dec":17.26747,"lon_dec":-97.680492}},
{"type":"Feature","geometry":{"type":"Point","coordinates":[-96.938589,15.897792]},"properties":{"clave":20401,"municipio":"Santa María Colotepec","region":"Costa","distrito":"Pochutla","bovinos":"bovinos","lat_dec":15.897792,"lon_dec":-96.938589}},
{"type":"Feature","geometry":{"type":"Point","coordinates":[-98.285716,16.450803]},"properties":{"clave":20402,"municipio":"Santa María Cortijo","region":"Costa","distrito":"Jamiltepec","bovinos":"bovinos","lat_dec":16.450803,"lon_dec":-98.285716}},
{"type":"Feature","geometry":{"type":"Point","coordinates":[-97.631912,17.588329]},"properties":{"clave":20405,"municipio":"Villa de Chilapa de Díaz","region":"Mixteca","distrito":"Teposcolula","bovinos":"bovinos","lat_dec":17.588329,"lon_dec":-97.631912}},
{"type":"Feature","geometry":{"type":"Point","coordinates":[-96.830541,18.23424]},"properties":{"clave":20406,"municipio":"Santa María Chilchotla","region":"Cañada","distrito":"Teotitlán","bovinos":"bovinos","lat_dec":18.23424,"lon_dec":-96.830541}},
{"type":"Feature","geometry":{"type":"Point","coordinates":[-94.683022,16.90992]},"properties":{"clave":20407,"municipio":"Santa María Chimalapa","region":"Istmo","distrito":"Juchitán","bovinos":"bovinos","lat_dec":16.90992,"lon_dec":-94.683022}},
{"type":"Feature","geometry":{"type":"Point","coordinates":[-95.88113,16.284183]},"properties":{"clave":20410,"municipio":"Santa María Ecatepec","region":"Sierra Sur","distrito":"Yautepec","bovinos":"bovinos","lat_dec":16.284183,"lon_dec":-95.88113}},
{"type":"Feature","geometry":{"type":"Point","coordinates":[-95.354486,16.737983]},"properties":{"clave":20412,"municipio":"Santa María Guienagati","region":"Istmo","distrito":"Tehuantepec","bovinos":"bovinos","lat_dec":16.737983,"lon_dec":-95.354486}},
{"type":"Feature","geometry":{"type":"Point","coordinates":[-96.322093,15.836111]},"properties":{"clave":20413,"municipio":"Santa María Huatulco","region":"Costa","distrito":"Pochutla","bovinos":"bovinos","lat_dec":15.836111,"lon_dec":-96.322093}},
{"type":"Feature","geometry":{"type":"Point","coordinates":[-97.912861,16.302222]},"properties":{"clave":20414,"municipio":"Santa María Huazolotitlán","region":"Costa","distrito":"Jamiltepec","bovinos":"bovinos","lat_dec":16.302222,"lon_dec":-97.912861}},
{"type":"Feature","geometry":{"type":"Point","coordinates":[-98.033824,16.636219]},"properties":{"clave":20415,"municipio":"Santa María Ipalapa","region":"Sierra Sur","distrito":"Putla","bovinos":"bovinos","lat_dec":16.636219,"lon_dec":-98.033824}},
{"type":"Feature","geometry":{"type":"Point","coordinates":[-96.211324,17.860133]},"properties":{"clave":20417,"municipio":"Santa María Jacatepec","region":"Papaloapam","distrito":"Tuxtepec","bovinos":"bovinos","lat_dec":17.860133,"lon_dec":-96.211324}},
{"type":"Feature","geometry":{"type":"Point","coordinates":[-95.443378,16.440065]},"properties":{"clave":20418,"municipio":"Santa María Jalapa del Marqués","region":"Istmo","distrito":"Tehuantepec","bovinos":"bovinos","lat_dec":16.440065,"lon_dec":-95.443378}},
{"type":"Feature","geometry":{"type":"Point","coordinates":[-96.528271,17.365613]},"properties":{"clave":20419,"municipio":"Santa María Jaltianguis","region":"Sierra Norte","distrito":"Benemérito Distrito de Ixtlán de Juárez","bovinos":"bovinos","lat_dec":17.365613,"lon_dec":-96.528271}},
{"type":"Feature","geometry":{"type":"Point","coordinates":[-95.260473,16.373708]},"properties":{"clave":20421,"municipio":"Santa María Mixtequilla","region":"Istmo","distrito":"Tehuantepec","bovinos":"bovinos","lat_dec":16.373708,"lon_dec":-95.260473}},
{"type":"Feature","geometry":{"type":"Point","coordinates":[-95.120039,16.822429]},"properties":{"clave":20427,"municipio":"Santa María Petapa","region":"Istmo","distrito":"Juchitán","bovinos":"bovinos","lat_dec":16.822429,"lon_dec":-95.120039}},
{"type":"Feature","geometry":{"type":"Point","coordinates":[-96.052003,16.277213]},"properties":{"clave":20428,"municipio":"Santa María Quiegolani","region":"Sierra Sur","distrito":"Yautepec","bovinos":"bovinos","lat_dec":16.277213,"lon_dec":-96.052003}},
{"type":"Feature","geometry":{"type":"Point","coordinates":[-97.013188,16.566713]},"properties":{"clave":20429,"municipio":"Santa María Sola","region":"Sierra Sur","distrito":"Sola de Vega","bovinos":"bovinos","lat_dec":16.566713,"lon_dec":-97.013188}},
{"type":"Feature","geometry":{"type":"Point","coordinates":[-97.024437,17.956257]},"properties":{"clave":20431,"municipio":"Santa María Tecomavaca","region":"Cañada","distrito":"Teotitlán","bovinos":"bovinos","lat_dec":17.956257,"lon_dec":-97.024437}},
{"type":"Feature","geometry":{"type":"Point","coordinates":[-97.194655,16.163109]},"properties":{"clave":20433,"municipio":"Santa María Temaxcaltepec","region":"Costa","distrito":"Juquila","bovinos":"bovinos","lat_dec":16.163109,"lon_dec":-97.194655}},
{"type":"Feature","geometry":{"type":"Point","coordinates":[-96.738075,17.951677]},"properties":{"clave":20438,"municipio":"Santa María Tlalixtac","region":"Cañada","distrito":"Cuicatlán","bovinos":"bovinos","lat_dec":17.951677,"lon_dec":-96.738075}},
{"type":"Feature","geometry":{"type":"Point","coordinates":[-96.545365,15.747139]},"properties":{"clave":20439,"municipio":"Santa María Tonameca","region":"Costa","distrito":"Pochutla","bovinos":"bovinos","lat_dec":15.747139,"lon_dec":-96.545365}},
{"type":"Feature","geometry":{"type":"Point","coordinates":[-95.01985,16.360301]},"properties":{"clave":20441,"municipio":"Santa María Xadani","region":"Istmo","distrito":"Juchitán","bovinos":"bovinos","lat_dec":16.360301,"lon_dec":-95.01985}},
{"type":"Feature","geometry":{"type":"Point","coordinates":[-96.262781,17.240471]},"properties":{"clave":20442,"municipio":"Santa María Yalina","region":"Sierra Norte","distrito":"Villa Alta","bovinos":"bovinos","lat_dec":17.240471,"lon_dec":-96.262781}},
{"type":"Feature","geometry":{"type":"Point","coordinates":[-97.989878,16.763894]},"properties":{"clave":20447,"municipio":"Santa María Zacatepec","region":"Sierra Sur","distrito":"Putla","bovinos":"bovinos","lat_dec":16.763894,"lon_dec":-97.989878}},
{"type":"Feature","geometry":{"type":"Point","coordinates":[-95.675866,15.987631]},"properties":{"clave":20453,"municipio":"Santiago Astata","region":"Istmo","distrito":"Tehuantepec","bovinos":"bovinos","lat_dec":15.987631,"lon_dec":-95.675866}},
{"type":"Feature","geometry":{"type":"Point","coordinates":[-96.547813,17.564126]},"properties":{"clave":20458,"municipio":"Santiago Comaltepec","region":"Sierra Norte","distrito":"Benemérito Distrito de Ixtlán de Juárez","bovinos":"bovinos","lat_dec":17.564126,"lon_dec":-96.547813}},
{"type":"Feature","geometry":{"type":"Point","coordinates":[-95.922623,17.360612]},"properties":{"clave":20460,"municipio":"Santiago Choápam","region":"Papaloapam","distrito":"Choápam","bovinos":"bovinos","lat_dec":17.360612,"lon_dec":-95.922623}},
{"type":"Feature","geometry":{"type":"Point","coordinates":[-97.071527,17.450841]},"properties":{"clave":20463,"municipio":"Santiago Huauclilla","region":"Mixteca","distrito":"Nochixtlán","bovinos":"bovinos","lat_dec":17.450841,"lon_dec":-97.071527}},
{"type":"Feature","geometry":{"type":"Point","coordinates":[-97.651969,16.565006]},"properties":{"clave":20466,"municipio":"Santiago Ixtayutla","region":"Costa","distrito":"Jamiltepec","bovinos":"bovinos","lat_dec":16.565006,"lon_dec":-97.651969}},
{"type":"Feature","geometry":{"type":"Point","coordinates":[-97.819682,16.279458]},"properties":{"clave":20467,"municipio":"Santiago Jamiltepec","region":"Costa","distrito":"Jamiltepec","bovinos":"bovinos","lat_dec":16.279458,"lon_dec":-97.819682}},
{"type":"Feature","geometry":{"type":"Point","coordinates":[-95.944416,17.53568]},"properties":{"clave":20468,"municipio":"Santiago Jocotepec","region":"Papaloapam","distrito":"Choápam","bovinos":"bovinos","lat_dec":17.53568,"lon_dec":-95.944416}},
{"type":"Feature","geometry":{"type":"Point","coordinates":[-98.012449,17.33529]},"properties":{"clave":20469,"municipio":"Santiago Juxtlahuaca","region":"Mixteca","distrito":"Juxtlahuaca","bovinos":"bovinos","lat_dec":17.33529,"lon_dec":-98.012449}},
{"type":"Feature","geometry":{"type":"Point","coordinates":[-95.532658,16.686459]},"properties":{"clave":20470,"municipio":"Santiago Lachiguiri","region":"Istmo","distrito":"Tehuantepec","bovinos":"bovinos","lat_dec":16.686459,"lon_dec":-95.532658}},
{"type":"Feature","geometry":{"type":"Point","coordinates":[-95.204579,16.584887]},"properties":{"clave":20472,"municipio":"Santiago Laollaga","region":"Istmo","distrito":"Tehuantepec","bovinos":"bovinos","lat_dec":16.584887,"lon_dec":-95.204579}},
{"type":"Feature","geometry":{"type":"Point","coordinates":[-98.289669,16.489426]},"properties":{"clave":20474,"municipio":"Santiago Llano Grande","region":"Costa","distrito":"Jamiltepec","bovinos":"bovinos","lat_dec":16.489426,"lon_dec":-98.289669}},
{"type":"Feature","geometry":{"type":"Point","coordinates":[-96.383423,16.866099]},"properties":{"clave":20475,"municipio":"Santiago Matatlán","region":"Valles Centrales","distrito":"Tlacolula","bovinos":"bovinos","lat_dec":16.866099,"lon_dec":-96.383423}},
{"type":"Feature","geometry":{"type":"Point","coordinates":[-97.689289,17.984733]},"properties":{"clave":20476,"municipio":"Santiago Miltepec","region":"Mixteca","distrito":"Huajuapan","bovinos":"bovinos","lat_dec":17.984733,"lon_dec":-97.689289}},
{"type":"Feature","geometry":{"type":"Point","coordinates":[-97.228153,16.426183]},"properties":{"clave":20477,"municipio":"Santiago Minas","region":"Sierra Sur","distrito":"Sola de Vega","bovinos":"bovinos","lat_dec":16.426183,"lon_dec":-97.228153}},
{"type":"Feature","geometry":{"type":"Point","coordinates":[-98.050348,16.339009]},"properties":{"clave":20482,"municipio":"Santiago Pinotepa Nacional","region":"Costa","distrito":"Jamiltepec","bovinos":"bovinos","lat_dec":16.339009,"lon_dec":-98.050348}},
{"type":"Feature","geometry":{"type":"Point","coordinates":[-98.2208,17.669309]},"properties":{"clave":20484,"municipio":"Santiago Tamazola","region":"Mixteca","distrito":"Silacayoápam","bovinos":"bovinos","lat_dec":17.669309,"lon_dec":-98.2208}},
{"type":"Feature","geometry":{"type":"Point","coordinates":[-98.447474,16.34097]},"properties":{"clave":20485,"municipio":"Santiago Tapextla","region":"Costa","distrito":"Jamiltepec","bovinos":"bovinos","lat_dec":16.34097,"lon_dec":-98.447474}},
{"type":"Feature","geometry":{"type":"Point","coordinates":[-97.748254,16.322271]},"properties":{"clave":20489,"municipio":"Santiago Tetepec","region":"Costa","distrito":"Jamiltepec","bovinos":"bovinos","lat_dec":16.322271,"lon_dec":-97.748254}},
{"type":"Feature","geometry":{"type":"Point","coordinates":[-95.700692,17.335828]},"properties":{"clave":20498,"municipio":"Santiago Yaveo","region":"Papaloapam","distrito":"Choápam","bovinos":"bovinos","lat_dec":17.335828,"lon_dec":-95.700692}},
{"type":"Feature","geometry":{"type":"Point","coordinates":[-94.76863,16.588492]},"properties":{"clave":20505,"municipio":"Santo Domingo Ingenio","region":"Istmo","distrito":"Juchitán","bovinos":"bovinos","lat_dec":16.588492,"lon_dec":-94.76863}},
{"type":"Feature","geometry":{"type":"Point","coordinates":[-98.378152,16.332972]},"properties":{"clave":20507,"municipio":"Santo Domingo Armenta","region":"Costa","distrito":"Jamiltepec","bovinos":"bovinos","lat_dec":16.332972,"lon_dec":-98.378152}},
{"type":"Feature","geometry":{"type":"Point","coordinates":[-95.162369,16.591886]},"properties":{"clave":20508,"municipio":"Santo Domingo Chihuitán","region":"Istmo","distrito":"Tehuantepec","bovinos":"bovinos","lat_dec":16.591886,"lon_dec":-95.162369}},
{"type":"Feature","geometry":{"type":"Point","coordinates":[-96.668076,15.833004]},"properties":{"clave":20509,"municipio":"Santo Domingo de Morelos","region":"Costa","distrito":"Pochutla","bovinos":"bovinos","lat_dec":15.833004,"lon_dec":-96.668076}},
{"type":"Feature","geometry":{"type":"Point","coordinates":[-95.140423,16.820669]},"properties":{"clave":20513,"municipio":"Santo Domingo Petapa","region":"Istmo","distrito":"Juchitán","bovinos":"bovinos","lat_dec":16.820669,"lon_dec":-95.140423}},
{"type":"Feature","geometry":{"type":"Point","coordinates":[-95.232049,16.332058]},"properties":{"clave":20515,"municipio":"Santo Domingo Tehuantepec","region":"Istmo","distrito":"Tehuantepec","bovinos":"bovinos","lat_dec":16.332058,"lon_dec":-95.232049}},
{"type":"Feature","geometry":{"type":"Point","coordinates":[-97.226188,16.589403]},"properties":{"clave":20516,"municipio":"Santo Domingo Teojomulco","region":"Sierra Sur","distrito":"Sola de Vega","bovinos":"bovinos","lat_dec":16.589403,"lon_dec":-97.226188}},
{"type":"Feature","geometry":{"type":"Point","coordinates":[-96.624358,17.06042]},"properties":{"clave":20519,"municipio":"Santo Domingo Tomaltepec","region":"Valles Centrales","distrito":"Centro","bovinos":"bovinos","lat_dec":17.06042,"lon_dec":-96.624358}},
{"type":"Feature","geometry":{"type":"Point","coordinates":[-97.342309,17.528043]},"properties":{"clave":20523,"municipio":"Santo Domingo Yanhuitlán","region":"Mixteca","distrito":"Nochixtlán","bovinos":"bovinos","lat_dec":17.528043,"lon_dec":-97.342309}},
{"type":"Feature","geometry":{"type":"Point","coordinates":[-94.353903,16.482804]},"properties":{"clave":20525,"municipio":"Santo Domingo Zanatepec","region":"Istmo","distrito":"Juchitán","bovinos":"bovinos","lat_dec":16.482804,"lon_dec":-94.353903}},
{"type":"Feature","geometry":{"type":"Point","coordinates":[-97.144447,16.106764]},"properties":{"clave":20526,"municipio":"Santos Reyes Nopala","region":"Costa","distrito":"Juquila","bovinos":"bovinos","lat_dec":16.106764,"lon_dec":-97.144447}},
{"type":"Feature","geometry":{"type":"Point","coordinates":[-97.762301,17.145254]},"properties":{"clave":20532,"municipio":"Santo Tomás Ocotepec","region":"Mixteca","distrito":"Tlaxiaco","bovinos":"bovinos","lat_dec":17.145254,"lon_dec":-97.762301}},
{"type":"Feature","geometry":{"type":"Point","coordinates":[-97.442284,17.456761]},"properties":{"clave":20536,"municipio":"San Vicente Nuñú","region":"Mixteca","distrito":"Teposcolula","bovinos":"bovinos","lat_dec":17.456761,"lon_dec":-97.442284}},
{"type":"Feature","geometry":{"type":"Point","coordinates":[-97.572848,17.673063]},"properties":{"clave":20540,"municipio":"Villa de Tamazulápam del Progreso","region":"Mixteca","distrito":"Teposcolula","bovinos":"bovinos","lat_dec":17.673063,"lon_dec":-97.572848}},
{"type":"Feature","geometry":{"type":"Point","coordinates":[-97.546069,16.306406]},"properties":{"clave":20543,"municipio":"Tataltepec de Valdés","region":"Costa","distrito":"Juquila","bovinos":"bovinos","lat_dec":16.306406,"lon_dec":-97.546069}},
{"type":"Feature","geometry":{"type":"Point","coordinates":[-96.518949,17.029579]},"properties":{"clave":20546,"municipio":"Teotitlán del Valle","region":"Valles Centrales","distrito":"Tlacolula","bovinos":"bovinos","lat_dec":17.029579,"lon_dec":-96.518949}},
{"type":"Feature","geometry":{"type":"Point","coordinates":[-97.362198,17.874806]},"properties":{"clave":20548,"municipio":"Tepelmeme Villa de Morelos","region":"Mixteca","distrito":"Coixtlahuaca","bovinos":"bovinos","lat_dec":17.874806,"lon_dec":-97.362198}},
{"type":"Feature","geometry":{"type":"Point","coordinates":[-96.479215,16.955624]},"properties":{"clave":20551,"municipio":"Tlacolula de Matamoros","region":"Valles Centrales","distrito":"Tlacolula","bovinos":"bovinos","lat_dec":16.955624,"lon_dec":-96.479215}},
{"type":"Feature","geometry":{"type":"Point","coordinates":[-96.027355,17.258634]},"properties":{"clave":20554,"municipio":"Totontepec Villa de Morelos","region":"Sierra Norte","distrito":"Mixe","bovinos":"bovinos","lat_dec":17.258634,"lon_dec":-96.027355}},
{"type":"Feature","geometry":{"type":"Point","coordinates":[-94.828939,16.472824]},"properties":{"clave":20557,"municipio":"Unión Hidalgo","region":"Istmo","distrito":"Juchitán","bovinos":"bovinos","lat_dec":16.472824,"lon_dec":-94.828939}},
{"type":"Feature","geometry":{"type":"Point","coordinates":[-96.304045,17.774953]},"properties":{"clave":20559,"municipio":"San Juan Bautista Valle Nacional","region":"Papaloapam","distrito":"Tuxtepec","bovinos":"bovinos","lat_dec":17.774953,"lon_dec":-96.304045}},
{"type":"Feature","geometry":{"type":"Point","coordinates":[-96.785633,16.866686]},"properties":{"clave":20570,"municipio":"Zimatlán de Álvarez","region":"Valles Centrales","distrito":"Zimatlán","bovinos":"bovinos","lat_dec":16.866686,"lon_dec":-96.785633}}
]}