{"type":"FeatureCollection", "features": [
{"type":"Feature","geometry":{"type":"Point","coordinates":[-96.731901,16.564276]},"properties":{"cvgeo":20028,"Municipio":"Heroica Ciudad de Ejutla de Crespo","region":"Valles Centrales","distrito":"Ejutla","lat_dec":16.564276,"lon_dec":-96.731901,"Fresa":"Fresa"}},
{"type":"Feature","geometry":{"type":"Point","coordinates":[-97.831447,17.305726]},"properties":{"cvgeo":20208,"Municipio":"San Juan Mixtepec Distrito 08","region":"Mixteca","distrito":"Juxtlahuaca","lat_dec":17.305726,"lon_dec":-97.831447,"Fresa":"Fresa"}},
{"type":"Feature","geometry":{"type":"Point","coordinates":[-97.706421,17.398289]},"properties":{"cvgeo":20210,"Municipio":"San Juan Ñumí","region":"Mixteca","distrito":"Tlaxiaco","lat_dec":17.398289,"lon_dec":-97.706421,"Fresa":"Fresa"}},
{"type":"Feature","geometry":{"type":"Point","coordinates":[-96.89111,16.982708]},"properties":{"cvgeo":20292,"Municipio":"San Pablo Cuatro Venados","region":"Valles Centrales","distrito":"Zaachila","lat_dec":16.982708,"lon_dec":-96.89111,"Fresa":"Fresa"}},
{"type":"Feature","geometry":{"type":"Point","coordinates":[-96.820094,17.063276]},"properties":{"cvgeo":20310,"Municipio":"San Pedro Ixtlahuaca","region":"Valles Centrales","distrito":"Centro","lat_dec":17.063276,"lon_dec":-96.820094,"Fresa":"Fresa"}},
{"type":"Feature","geometry":{"type":"Point","coordinates":[-97.610076,17.432628]},"properties":{"cvgeo":20317,"Municipio":"San Pedro Mártir Yucuxaco","region":"Mixteca","distrito":"Tlaxiaco","lat_dec":17.432628,"lon_dec":-97.610076,"Fresa":"Fresa"}},
{"type":"Feature","geometry":{"type":"Point","coordinates":[-98.031174,17.345856]},"properties":{"cvgeo":20348,"Municipio":"San Sebastián Tecomaxtlahuaca","region":"Mixteca","distrito":"Juxtlahuaca","lat_dec":17.345856,"lon_dec":-98.031174,"Fresa":"Fresa"}},
{"type":"Feature","geometry":{"type":"Point","coordinates":[-96.610779,17.397788]},"properties":{"cvgeo":20359,"Municipio":"Santa Ana Yareni","region":"Sierra Norte","distrito":"Ixtlán de Juárez","lat_dec":17.397788,"lon_dec":-96.610779,"Fresa":"Fresa"}},
{"type":"Feature","geometry":{"type":"Point","coordinates":[-96.861687,16.925767]},"properties":{"cvgeo":20388,"Municipio":"Santa Inés del Monte","region":"Valles Centrales","distrito":"Zaachila","lat_dec":16.925767,"lon_dec":-96.861687,"Fresa":"Fresa"}},
{"type":"Feature","geometry":{"type":"Point","coordinates":[-97.680492,17.26747]},"properties":{"cvgeo":20397,"Municipio":"Heroica Ciudad de Tlaxiaco","region":"Mixteca","distrito":"Tlaxiaco","lat_dec":17.26747,"lon_dec":-97.680492,"Fresa":"Fresa"}},
{"type":"Feature","geometry":{"type":"Point","coordinates":[-97.496337,17.411509]},"properties":{"cvgeo":20423,"Municipio":"Santa María Nduayaco","region":"Mixteca","distrito":"Teposcolula","lat_dec":17.411509,"lon_dec":-97.496337,"Fresa":"Fresa"}},
{"type":"Feature","geometry":{"type":"Point","coordinates":[-97.319723,17.460285]},"properties":{"cvgeo":20493,"Municipio":"Santiago Tillo","region":"Mixteca","distrito":"Nochixtlán","lat_dec":17.460285,"lon_dec":-97.319723,"Fresa":"Fresa"}},
{"type":"Feature","geometry":{"type":"Point","coordinates":[-97.505751,17.77263]},"properties":{"cvgeo":20556,"Municipio":"La Trinidad Vista Hermosa","region":"Mixteca","distrito":"Teposcolula","lat_dec":17.77263,"lon_dec":-97.505751,"Fresa":"Fresa"}}
]}