{"type":"FeatureCollection", "features": [
{"type":"Feature","geometry":{"type":"Point","coordinates":[-96.60761,18.538563]},"properties":{"clave":20002,"municipio":"Acatlán de Pérez Figueroa","region":"Papaloapam","distrito":"Tuxtepec","porcinos":"porcinos","lat_dec":18.538563,"lon_dec":-96.60761}},
{"type":"Feature","geometry":{"type":"Point","coordinates":[-95.057045,16.50384]},"properties":{"clave":20005,"municipio":"Asunción Ixtaltepec","region":"Istmo","distrito":"Juchitán","porcinos":"porcinos","lat_dec":16.50384,"lon_dec":-95.057045}},
{"type":"Feature","geometry":{"type":"Point","coordinates":[-96.133271,17.676709]},"properties":{"clave":20009,"municipio":"Ayotzintepec","region":"Papaloapam","distrito":"Tuxtepec","porcinos":"porcinos","lat_dec":17.676709,"lon_dec":-96.133271}},
{"type":"Feature","geometry":{"type":"Point","coordinates":[-95.11219,16.803935]},"properties":{"clave":20010,"municipio":"El Barrio de la Soledad","region":"Istmo","distrito":"Juchitán","porcinos":"porcinos","lat_dec":16.803935,"lon_dec":-95.11219}},
{"type":"Feature","geometry":{"type":"Point","coordinates":[-95.042836,16.48571]},"properties":{"clave":20030,"municipio":"El Espinal","region":"Istmo","distrito":"Juchitán","porcinos":"porcinos","lat_dec":16.48571,"lon_dec":-95.042836}},
{"type":"Feature","geometry":{"type":"Point","coordinates":[-97.966546,16.915356]},"properties":{"clave":20037,"municipio":"Mesones Hidalgo","region":"Sierra Sur","distrito":"Putla","porcinos":"porcinos","lat_dec":16.915356,"lon_dec":-97.966546}},
{"type":"Feature","geometry":{"type":"Point","coordinates":[-97.776236,17.806837]},"properties":{"clave":20039,"municipio":"Heroica Ciudad de Huajuapan de León","region":"Mixteca","distrito":"Huajuapan","porcinos":"porcinos","lat_dec":17.806837,"lon_dec":-97.776236}},
{"type":"Feature","geometry":{"type":"Point","coordinates":[-96.846162,18.130377]},"properties":{"clave":20041,"municipio":"Huautla de Jiménez","region":"Cañada","distrito":"Teotitlán","porcinos":"porcinos","lat_dec":18.130377,"lon_dec":-96.846162}},
{"type":"Feature","geometry":{"type":"Point","coordinates":[-95.021633,16.433308]},"properties":{"clave":20043,"municipio":"Heroica Ciudad de Juchitán de Zaragoza","region":"Istmo","distrito":"Juchitán","porcinos":"porcinos","lat_dec":16.433308,"lon_dec":-95.021633}},
{"type":"Feature","geometry":{"type":"Point","coordinates":[-95.879976,18.109871]},"properties":{"clave":20044,"municipio":"Loma Bonita","region":"Papaloapam","distrito":"Tuxtepec","porcinos":"porcinos","lat_dec":18.109871,"lon_dec":-95.879976}},
{"type":"Feature","geometry":{"type":"Point","coordinates":[-95.042149,16.877889]},"properties":{"clave":20057,"municipio":"Matías Romero Avendaño","region":"Istmo","distrito":"Juchitán","porcinos":"porcinos","lat_dec":16.877889,"lon_dec":-95.042149}},
{"type":"Feature","geometry":{"type":"Point","coordinates":[-96.596524,16.328478]},"properties":{"clave":20059,"municipio":"Miahuatlán de Porfirio Díaz","region":"Sierra Sur","distrito":"Miahuatlán","porcinos":"porcinos","lat_dec":16.328478,"lon_dec":-96.596524}},
{"type":"Feature","geometry":{"type":"Point","coordinates":[-94.613004,16.562093]},"properties":{"clave":20066,"municipio":"Santiago Niltepec","region":"Istmo","distrito":"Juchitán","porcinos":"porcinos","lat_dec":16.562093,"lon_dec":-94.613004}},
{"type":"Feature","geometry":{"type":"Point","coordinates":[-97.977435,16.428442]},"properties":{"clave":20070,"municipio":"Pinotepa de Don Luis","region":"Costa","distrito":"Jamiltepec","porcinos":"porcinos","lat_dec":16.428442,"lon_dec":-97.977435}},
{"type":"Feature","geometry":{"type":"Point","coordinates":[-96.685529,16.685128]},"properties":{"clave":20072,"municipio":"San José del Progreso","region":"Valles Centrales","distrito":"Ocotlán","porcinos":"porcinos","lat_dec":16.685128,"lon_dec":-96.685529}},
{"type":"Feature","geometry":{"type":"Point","coordinates":[-97.928153,17.026205]},"properties":{"clave":20073,"municipio":"Putla Villa de Guerrero","region":"Sierra Sur","distrito":"Putla","porcinos":"porcinos","lat_dec":17.026205,"lon_dec":-97.928153}},
{"type":"Feature","geometry":{"type":"Point","coordinates":[-97.844498,16.623315]},"properties":{"clave":20076,"municipio":"La Reforma","region":"Sierra Sur","distrito":"Putla","porcinos":"porcinos","lat_dec":16.623315,"lon_dec":-97.844498}},
{"type":"Feature","geometry":{"type":"Point","coordinates":[-96.810093,17.205556]},"properties":{"clave":20077,"municipio":"Reyes Etla","region":"Valles Centrales","distrito":"Etla","porcinos":"porcinos","lat_dec":17.205556,"lon_dec":-96.810093}},
{"type":"Feature","geometry":{"type":"Point","coordinates":[-95.192159,16.175885]},"properties":{"clave":20079,"municipio":"Salina Cruz","region":"Istmo","distrito":"Tehuantepec","porcinos":"porcinos","lat_dec":16.175885,"lon_dec":-95.192159}},
{"type":"Feature","geometry":{"type":"Point","coordinates":[-97.807518,16.402382]},"properties":{"clave":20082,"municipio":"San Agustín Chayuco","region":"Costa","distrito":"Jamiltepec","porcinos":"porcinos","lat_dec":16.402382,"lon_dec":-97.807518}},
{"type":"Feature","geometry":{"type":"Point","coordinates":[-96.616764,16.016609]},"properties":{"clave":20085,"municipio":"San Agustín Loxicha","region":"Costa","distrito":"Pochutla","porcinos":"porcinos","lat_dec":16.016609,"lon_dec":-96.616764}},
{"type":"Feature","geometry":{"type":"Point","coordinates":[-96.86349,17.186388]},"properties":{"clave":20102,"municipio":"San Andrés Zautla","region":"Valles Centrales","distrito":"Etla","porcinos":"porcinos","lat_dec":17.186388,"lon_dec":-96.86349}},
{"type":"Feature","geometry":{"type":"Point","coordinates":[-96.70765,16.958281]},"properties":{"clave":20115,"municipio":"San Bartolo Coyotepec","region":"Valles Centrales","distrito":"Centro","porcinos":"porcinos","lat_dec":16.958281,"lon_dec":-96.70765}},
{"type":"Feature","geometry":{"type":"Point","coordinates":[-94.757003,16.320539]},"properties":{"clave":20130,"municipio":"San Dionisio del Mar","region":"Istmo","distrito":"Juchitán","porcinos":"porcinos","lat_dec":16.320539,"lon_dec":-94.757003}},
{"type":"Feature","geometry":{"type":"Point","coordinates":[-96.536115,18.071283]},"properties":{"clave":20134,"municipio":"San Felipe Jalapa de Díaz","region":"Papaloapam","distrito":"Tuxtepec","porcinos":"porcinos","lat_dec":18.071283,"lon_dec":-96.536115}},
{"type":"Feature","geometry":{"type":"Point","coordinates":[-96.754408,17.940951]},"properties":{"clave":20139,"municipio":"San Francisco Chapulapa","region":"Cañada","distrito":"Cuicatlán","porcinos":"porcinos","lat_dec":17.940951,"lon_dec":-96.754408}},
{"type":"Feature","geometry":{"type":"Point","coordinates":[-96.947821,18.197594]},"properties":{"clave":20142,"municipio":"San Francisco Huehuetlán","region":"Cañada","distrito":"Teotitlán","porcinos":"porcinos","lat_dec":18.197594,"lon_dec":-96.947821}},
{"type":"Feature","geometry":{"type":"Point","coordinates":[-94.483828,16.352357]},"properties":{"clave":20143,"municipio":"San Francisco Ixhuatán","region":"Istmo","distrito":"Juchitán","porcinos":"porcinos","lat_dec":16.352357,"lon_dec":-94.483828}},
{"type":"Feature","geometry":{"type":"Point","coordinates":[-96.170537,17.945353]},"properties":{"clave":20166,"municipio":"San José Chiltepec","region":"Papaloapam","distrito":"Tuxtepec","porcinos":"porcinos","lat_dec":17.945353,"lon_dec":-96.170537}},
{"type":"Feature","geometry":{"type":"Point","coordinates":[-98.251286,16.365203]},"properties":{"clave":20168,"municipio":"San José Estancia Grande","region":"Costa","distrito":"Jamiltepec","porcinos":"porcinos","lat_dec":16.365203,"lon_dec":-98.251286}},
{"type":"Feature","geometry":{"type":"Point","coordinates":[-96.646128,18.239824]},"properties":{"clave":20169,"municipio":"San José Independencia","region":"Papaloapam","distrito":"Tuxtepec","porcinos":"porcinos","lat_dec":18.239824,"lon_dec":-96.646128}},
{"type":"Feature","geometry":{"type":"Point","coordinates":[-96.959567,17.801548]},"properties":{"clave":20177,"municipio":"San Juan Bautista Cuicatlán","region":"Cañada","distrito":"Cuicatlán","porcinos":"porcinos","lat_dec":17.801548,"lon_dec":-96.959567}},
{"type":"Feature","geometry":{"type":"Point","coordinates":[-98.346803,16.511515]},"properties":{"clave":20180,"municipio":"San Juan Bautista Lo de Soto","region":"Costa","distrito":"Jamiltepec","porcinos":"porcinos","lat_dec":16.511515,"lon_dec":-98.346803}},
{"type":"Feature","geometry":{"type":"Point","coordinates":[-96.118482,18.081165]},"properties":{"clave":20184,"municipio":"San Juan Bautista Tuxtepec","region":"Papaloapam","distrito":"Tuxtepec","porcinos":"porcinos","lat_dec":18.081165,"lon_dec":-96.118482}},
{"type":"Feature","geometry":{"type":"Point","coordinates":[-98.156092,16.613734]},"properties":{"clave":20185,"municipio":"San Juan Cacahuatepec","region":"Costa","distrito":"Jamiltepec","porcinos":"porcinos","lat_dec":16.613734,"lon_dec":-98.156092}},
{"type":"Feature","geometry":{"type":"Point","coordinates":[-97.953989,16.459666]},"properties":{"clave":20188,"municipio":"San Juan Colorado","region":"Costa","distrito":"Jamiltepec","porcinos":"porcinos","lat_dec":16.459666,"lon_dec":-97.953989}},
{"type":"Feature","geometry":{"type":"Point","coordinates":[-95.78231,17.164002]},"properties":{"clave":20190,"municipio":"San Juan Cotzocón","region":"Sierra Norte","distrito":"Mixe","porcinos":"porcinos","lat_dec":17.164002,"lon_dec":-95.78231}},
{"type":"Feature","geometry":{"type":"Point","coordinates":[-95.095094,16.962829]},"properties":{"clave":20198,"municipio":"San Juan Guichicovi","region":"Istmo","distrito":"Juchitán","porcinos":"porcinos","lat_dec":16.962829,"lon_dec":-95.095094}},
{"type":"Feature","geometry":{"type":"Point","coordinates":[-95.879883,17.470891]},"properties":{"clave":20205,"municipio":"San Juan Lalana","region":"Papaloapam","distrito":"Choápam","porcinos":"porcinos","lat_dec":17.470891,"lon_dec":-95.879883}},
{"type":"Feature","geometry":{"type":"Point","coordinates":[-95.446467,17.031124]},"properties":{"clave":20207,"municipio":"San Juan Mazatlán","region":"Sierra Norte","distrito":"Mixe","porcinos":"porcinos","lat_dec":17.031124,"lon_dec":-95.446467}},
{"type":"Feature","geometry":{"type":"Point","coordinates":[-96.801996,17.129359]},"properties":{"clave":20227,"municipio":"San Lorenzo Cacaotepec","region":"Valles Centrales","distrito":"Etla","porcinos":"porcinos","lat_dec":17.129359,"lon_dec":-96.801996}},
{"type":"Feature","geometry":{"type":"Point","coordinates":[-96.397763,18.057503]},"properties":{"clave":20232,"municipio":"San Lucas Ojitlán","region":"Papaloapam","distrito":"Tuxtepec","porcinos":"porcinos","lat_dec":18.057503,"lon_dec":-96.397763}},
{"type":"Feature","geometry":{"type":"Point","coordinates":[-94.748212,16.714515]},"properties":{"clave":20265,"municipio":"San Miguel Chimalapa","region":"Istmo","distrito":"Juchitán","porcinos":"porcinos","lat_dec":16.714515,"lon_dec":-94.748212}},
{"type":"Feature","geometry":{"type":"Point","coordinates":[-96.739378,16.580445]},"properties":{"clave":20268,"municipio":"San Miguel Ejutla","region":"Valles Centrales","distrito":"Ejutla","porcinos":"porcinos","lat_dec":16.580445,"lon_dec":-96.739378}},
{"type":"Feature","geometry":{"type":"Point","coordinates":[-96.403581,18.240372]},"properties":{"clave":20278,"municipio":"San Miguel Soyaltepec","region":"Papaloapam","distrito":"Tuxtepec","porcinos":"porcinos","lat_dec":18.240372,"lon_dec":-96.403581}},
{"type":"Feature","geometry":{"type":"Point","coordinates":[-98.063217,16.416729]},"properties":{"clave":20285,"municipio":"San Miguel Tlacamama","region":"Costa","distrito":"Jamiltepec","porcinos":"porcinos","lat_dec":16.416729,"lon_dec":-98.063217}},
{"type":"Feature","geometry":{"type":"Point","coordinates":[-98.089927,16.653904]},"properties":{"clave":20300,"municipio":"San Pedro Amuzgos","region":"Sierra Sur","distrito":"Putla","porcinos":"porcinos","lat_dec":16.653904,"lon_dec":-98.089927}},
{"type":"Feature","geometry":{"type":"Point","coordinates":[-96.510622,18.14566]},"properties":{"clave":20309,"municipio":"San Pedro Ixcatlán","region":"Papaloapam","distrito":"Tuxtepec","porcinos":"porcinos","lat_dec":18.14566,"lon_dec":-96.510622}},
{"type":"Feature","geometry":{"type":"Point","coordinates":[-94.193848,16.367249]},"properties":{"clave":20327,"municipio":"San Pedro Tapanatepec","region":"Istmo","distrito":"Juchitán","porcinos":"porcinos","lat_dec":16.367249,"lon_dec":-94.193848}},
{"type":"Feature","geometry":{"type":"Point","coordinates":[-96.705671,17.977028]},"properties":{"clave":20330,"municipio":"San Pedro Teutila","region":"Cañada","distrito":"Cuicatlán","porcinos":"porcinos","lat_dec":17.977028,"lon_dec":-96.705671}},
{"type":"Feature","geometry":{"type":"Point","coordinates":[-97.608541,16.129895]},"properties":{"clave":20334,"municipio":"Villa de Tututepec","region":"Costa","distrito":"Juquila","porcinos":"porcinos","lat_dec":16.129895,"lon_dec":-97.608541}},
{"type":"Feature","geometry":{"type":"Point","coordinates":[-96.800579,17.207528]},"properties":{"clave":20338,"municipio":"Villa de Etla","region":"Valles Centrales","distrito":"Etla","porcinos":"porcinos","lat_dec":17.207528,"lon_dec":-96.800579}},
{"type":"Feature","geometry":{"type":"Point","coordinates":[-97.488189,17.51207]},"properties":{"clave":20339,"municipio":"San Pedro y San Pablo Teposcolula","region":"Mixteca","distrito":"Teposcolula","porcinos":"porcinos","lat_dec":17.51207,"lon_dec":-97.488189}},
{"type":"Feature","geometry":{"type":"Point","coordinates":[-98.144487,16.543667]},"properties":{"clave":20345,"municipio":"San Sebastián Ixcapa","region":"Costa","distrito":"Jamiltepec","porcinos":"porcinos","lat_dec":16.543667,"lon_dec":-98.144487}},
{"type":"Feature","geometry":{"type":"Point","coordinates":[-97.292473,16.237009]},"properties":{"clave":20364,"municipio":"Santa Catarina Juquila","region":"Costa","distrito":"Juquila","porcinos":"porcinos","lat_dec":16.237009,"lon_dec":-97.292473}},
{"type":"Feature","geometry":{"type":"Point","coordinates":[-96.882407,16.792443]},"properties":{"clave":20378,"municipio":"Santa Cruz Mixtepec","region":"Valles Centrales","distrito":"Zimatlán","porcinos":"porcinos","lat_dec":16.792443,"lon_dec":-96.882407}},
{"type":"Feature","geometry":{"type":"Point","coordinates":[-97.495079,16.535131]},"properties":{"clave":20386,"municipio":"Santa Cruz Zenzontepec","region":"Sierra Sur","distrito":"Sola de Vega","porcinos":"porcinos","lat_dec":16.535131,"lon_dec":-97.495079}},
{"type":"Feature","geometry":{"type":"Point","coordinates":[-97.680492,17.26747]},"properties":{"clave":20397,"municipio":"Heroica Ciudad de Tlaxiaco","region":"Mixteca","distrito":"Tlaxiaco","porcinos":"porcinos","lat_dec":17.26747,"lon_dec":-97.680492}},
{"type":"Feature","geometry":{"type":"Point","coordinates":[-98.285716,16.450803]},"properties":{"clave":20402,"municipio":"Santa María Cortijo","region":"Costa","distrito":"Jamiltepec","porcinos":"porcinos","lat_dec":16.450803,"lon_dec":-98.285716}},
{"type":"Feature","geometry":{"type":"Point","coordinates":[-96.830541,18.23424]},"properties":{"clave":20406,"municipio":"Santa María Chilchotla","region":"Cañada","distrito":"Teotitlán","porcinos":"porcinos","lat_dec":18.23424,"lon_dec":-96.830541}},
{"type":"Feature","geometry":{"type":"Point","coordinates":[-95.354486,16.737983]},"properties":{"clave":20412,"municipio":"Santa María Guienagati","region":"Istmo","distrito":"Tehuantepec","porcinos":"porcinos","lat_dec":16.737983,"lon_dec":-95.354486}},
{"type":"Feature","geometry":{"type":"Point","coordinates":[-96.322093,15.836111]},"properties":{"clave":20413,"municipio":"Santa María Huatulco","region":"Costa","distrito":"Pochutla","porcinos":"porcinos","lat_dec":15.836111,"lon_dec":-96.322093}},
{"type":"Feature","geometry":{"type":"Point","coordinates":[-97.912861,16.302222]},"properties":{"clave":20414,"municipio":"Santa María Huazolotitlán","region":"Costa","distrito":"Jamiltepec","porcinos":"porcinos","lat_dec":16.302222,"lon_dec":-97.912861}},
{"type":"Feature","geometry":{"type":"Point","coordinates":[-96.211324,17.860133]},"properties":{"clave":20417,"municipio":"Santa María Jacatepec","region":"Papaloapam","distrito":"Tuxtepec","porcinos":"porcinos","lat_dec":17.860133,"lon_dec":-96.211324}},
{"type":"Feature","geometry":{"type":"Point","coordinates":[-97.013188,16.566713]},"properties":{"clave":20429,"municipio":"Santa María Sola","region":"Sierra Sur","distrito":"Sola de Vega","porcinos":"porcinos","lat_dec":16.566713,"lon_dec":-97.013188}},
{"type":"Feature","geometry":{"type":"Point","coordinates":[-97.024437,17.956257]},"properties":{"clave":20441,"municipio":"Santa María Xadani","region":"Istmo","distrito":"Juchitán","porcinos":"porcinos","lat_dec":17.956257,"lon_dec":-97.024437}},
{"type":"Feature","geometry":{"type":"Point","coordinates":[-97.989878,16.763894]},"properties":{"clave":20447,"municipio":"Santa María Zacatepec","region":"Sierra Sur","distrito":"Putla","porcinos":"porcinos","lat_dec":16.763894,"lon_dec":-97.989878}},
{"type":"Feature","geometry":{"type":"Point","coordinates":[-96.547813,17.564126]},"properties":{"clave":20458,"municipio":"Santiago Comaltepec","region":"Sierra Norte","distrito":"Benemérito Distrito de Ixtlán de Juárez","porcinos":"porcinos","lat_dec":17.564126,"lon_dec":-96.547813}},
{"type":"Feature","geometry":{"type":"Point","coordinates":[-97.819682,16.279458]},"properties":{"clave":20467,"municipio":"Santiago Jamiltepec","region":"Costa","distrito":"Jamiltepec","porcinos":"porcinos","lat_dec":16.279458,"lon_dec":-97.819682}},
{"type":"Feature","geometry":{"type":"Point","coordinates":[-95.944416,17.53568]},"properties":{"clave":20468,"municipio":"Santiago Jocotepec","region":"Papaloapam","distrito":"Choápam","porcinos":"porcinos","lat_dec":17.53568,"lon_dec":-95.944416}},
{"type":"Feature","geometry":{"type":"Point","coordinates":[-98.289669,16.489426]},"properties":{"clave":20474,"municipio":"Santiago Llano Grande","region":"Costa","distrito":"Jamiltepec","porcinos":"porcinos","lat_dec":16.489426,"lon_dec":-98.289669}},
{"type":"Feature","geometry":{"type":"Point","coordinates":[-98.050348,16.339009]},"properties":{"clave":20482,"municipio":"Santiago Pinotepa Nacional","region":"Costa","distrito":"Jamiltepec","porcinos":"porcinos","lat_dec":16.339009,"lon_dec":-98.050348}},
{"type":"Feature","geometry":{"type":"Point","coordinates":[-98.447474,16.34097]},"properties":{"clave":20485,"municipio":"Santiago Tapextla","region":"Costa","distrito":"Jamiltepec","porcinos":"porcinos","lat_dec":16.34097,"lon_dec":-98.447474}},
{"type":"Feature","geometry":{"type":"Point","coordinates":[-95.700692,17.335828]},"properties":{"clave":20498,"municipio":"Santiago Yaveo","region":"Papaloapam","distrito":"Choápam","porcinos":"porcinos","lat_dec":17.335828,"lon_dec":-95.700692}},
{"type":"Feature","geometry":{"type":"Point","coordinates":[-94.76863,16.588492]},"properties":{"clave":20505,"municipio":"Santo Domingo Ingenio","region":"Istmo","distrito":"Juchitán","porcinos":"porcinos","lat_dec":16.588492,"lon_dec":-94.76863}},
{"type":"Feature","geometry":{"type":"Point","coordinates":[-98.378152,16.332972]},"properties":{"clave":20507,"municipio":"Santo Domingo Armenta","region":"Costa","distrito":"Jamiltepec","porcinos":"porcinos","lat_dec":16.332972,"lon_dec":-98.378152}},
{"type":"Feature","geometry":{"type":"Point","coordinates":[-95.232049,16.332058]},"properties":{"clave":20515,"municipio":"Santo Domingo Tehuantepec","region":"Istmo","distrito":"Tehuantepec","porcinos":"porcinos","lat_dec":16.332058,"lon_dec":-95.232049}},
{"type":"Feature","geometry":{"type":"Point","coordinates":[-96.624358,17.06042]},"properties":{"clave":20519,"municipio":"Santo Domingo Tomaltepec","region":"Valles Centrales","distrito":"Centro","porcinos":"porcinos","lat_dec":17.06042,"lon_dec":-96.624358}},
{"type":"Feature","geometry":{"type":"Point","coordinates":[-94.353903,16.482804]},"properties":{"clave":20525,"municipio":"Santo Domingo Zanatepec","region":"Istmo","distrito":"Juchitán","porcinos":"porcinos","lat_dec":16.482804,"lon_dec":-94.353903}},
{"type":"Feature","geometry":{"type":"Point","coordinates":[-97.362198,17.874806]},"properties":{"clave":20548,"municipio":"Tepelmeme Villa de Morelos","region":"Mixteca","distrito":"Coixtlahuaca","porcinos":"porcinos","lat_dec":17.874806,"lon_dec":-97.362198}},
{"type":"Feature","geometry":{"type":"Point","coordinates":[-96.479215,16.955624]},"properties":{"clave":20551,"municipio":"Tlacolula de Matamoros","region":"Valles Centrales","distrito":"Tlacolula","porcinos":"porcinos","lat_dec":16.955624,"lon_dec":-96.479215}},
{"type":"Feature","geometry":{"type":"Point","coordinates":[-94.828939,16.472824]},"properties":{"clave":20557,"municipio":"Unión Hidalgo","region":"Istmo","distrito":"Juchitán","porcinos":"porcinos","lat_dec":16.472824,"lon_dec":-94.828939}},
{"type":"Feature","geometry":{"type":"Point","coordinates":[-96.304045,17.774953]},"properties":{"clave":20559,"municipio":"San Juan Bautista Valle Nacional","region":"Papaloapam","distrito":"Tuxtepec","porcinos":"porcinos","lat_dec":17.774953,"lon_dec":-96.304045}},
{"type":"Feature","geometry":{"type":"Point","coordinates":[-96.785633,16.866686]},"properties":{"clave":20570,"municipio":"Zimatlán de Álvarez","region":"Valles Centrales","distrito":"Zimatlán","porcinos":"porcinos","lat_dec":16.866686,"lon_dec":-96.785633}}
]}